,City,Cloudiness,Country,Date,Humidity,Lat,Lng,Max Temp,Wind Speed
<<<<<<< HEAD
0,ushuaia,75,AR,1580537606,66,-54.8,-68.3,53.6,16.11
1,busselton,0,AU,1580537606,20,-33.65,115.33,80.01,14.27
2,dulce grande,1,US,1580537606,78,36.93,-107.0,24.01,3.36
3,dikson,78,RU,1580537606,93,73.51,80.55,-11.61,10.27
4,butaritari,0,KI,1580537606,77,3.07,172.79,84.6,16.44
5,crab hill,90,US,1580537606,100,37.27,-76.49,43.0,4.7
6,sibiti,96,CG,1580537606,96,-3.68,13.35,70.36,0.94
7,jamestown,90,US,1580537606,80,42.1,-79.24,30.99,4.7
8,rikitea,92,PF,1580537606,79,-23.12,-134.97,79.45,15.03
9,odweyne,100,SO,1580537606,29,9.41,45.06,73.11,2.86
10,puerto ayora,75,ES,1580537606,100,36.59,-6.23,52.0,1.12
11,punta arenas,100,PH,1580537606,68,8.99,125.34,83.79,7.9
12,belaya gora,99,UA,1580537527,91,49.03,25.77,45.0,5.99
13,hobart,75,AU,1580537581,59,-42.88,147.33,70.0,17.22
14,bredasdorp,48,ZA,1580537606,68,-34.53,20.04,71.6,5.82
15,tiksi,100,RU,1580537606,91,71.69,128.87,-16.92,3.83
16,castro,2,BR,1580537458,99,-24.79,-50.01,63.5,3.56
17,port alfred,100,CD,1580537606,73,-7.03,29.76,75.97,5.68
18,lasa,0,IT,1580537606,92,46.62,10.7,35.01,1.12
19,port macquarie,100,CD,1580537606,73,-7.03,29.76,75.97,5.68
20,tasiilaq,100,GL,1580537606,67,65.61,-37.64,21.2,26.4
21,ponta do sol,100,PT,1580537606,95,38.73,-28.27,58.41,25.48
22,cidreira,6,BR,1580537606,86,-30.18,-50.21,73.85,4.85
23,torbay,90,CA,1580537560,78,47.67,-52.73,19.0,19.46
24,barrow,75,US,1580537606,82,71.29,-156.79,-23.8,4.7
25,hermanus,97,ZA,1580537607,86,-34.42,19.23,69.01,7.0
26,nishihara,40,JP,1580537607,45,26.18,127.76,64.4,14.99
27,lavrentiya,100,RU,1580537607,96,65.58,-171.0,-9.8,7.94
28,zhangjiakou,40,CN,1580537607,28,40.81,114.88,17.96,1.83
29,lagoa,100,PT,1580537607,90,39.05,-27.98,61.29,30.09
30,altagracia de orituco,0,NI,1580537607,77,11.57,-85.58,78.98,17.31
31,broome,90,US,1580537607,100,42.25,-75.83,33.01,3.04
32,bluff,100,NZ,1580537607,48,-46.6,168.33,72.68,11.07
33,airai,100,TL,1580537607,83,-8.93,125.41,76.37,2.46
34,cape town,0,CL,1580537607,72,-36.41,-71.9,66.2,4.7
35,turbat,0,PK,1580537607,16,26.0,63.04,69.42,6.73
36,norman wells,1,US,1580537607,69,35.22,-97.44,37.0,5.82
37,bilma,0,NE,1580537607,20,18.69,12.92,57.24,8.81
38,gorgan,40,IR,1580537607,81,36.84,54.43,46.4,3.4
39,mys shmidta,100,RU,1580537607,97,62.06,48.62,-3.93,2.44
40,santa luzia,58,PH,1580537607,47,17.49,120.43,81.55,6.42
41,ribeira grande,90,ES,1580537607,100,42.75,-8.44,60.01,11.41
42,east london,75,IS,1580537607,92,65.0,-15.0,28.4,9.17
43,port elizabeth,100,CD,1580537606,73,-7.03,29.76,75.97,5.68
44,isangel,75,VU,1580537607,66,-19.55,169.27,87.8,5.82
45,sakaiminato,75,JP,1580537607,52,35.55,133.23,48.2,5.82
46,yuancheng,100,CN,1580537607,93,36.65,107.79,32.25,4.36
47,guane,61,CU,1580537607,78,22.2,-84.09,77.04,9.13
48,berbera,100,SO,1580537608,65,10.44,45.01,75.85,4.72
49,hobyo,81,SO,1580537608,63,5.35,48.53,78.3,20.4
50,avera,90,US,1580537608,94,33.19,-82.53,41.0,6.93
51,kodiak,90,US,1580537608,66,57.79,-152.41,15.8,18.34
52,kapaa,75,US,1580537608,83,22.08,-159.32,75.2,11.41
53,kimbe,100,PG,1580537608,86,-5.55,150.14,81.48,3.94
54,adrar,0,MR,1580537608,15,20.5,-10.07,58.77,11.65
55,guerrero negro,40,MX,1580537608,83,17.67,-100.0,53.89,2.71
56,odienne,0,CI,1580537608,15,9.51,-7.57,64.4,1.9
57,qaanaaq,100,GL,1580537608,99,77.48,-69.36,-23.48,0.89
58,souillac,40,MU,1580537608,70,-20.52,57.52,84.2,14.99
59,vaini,75,TO,1580537608,83,-21.2,-175.2,80.6,11.41
60,rognan,100,NO,1580537608,60,67.1,15.39,39.2,20.8
61,georgetown,20,MY,1580537608,74,5.41,100.34,93.2,8.05
62,baijiantan,0,CN,1580537608,76,45.63,85.18,10.35,5.46
63,tomatlan,100,MX,1580537608,88,19.93,-105.25,65.35,1.74
64,shingu,20,JP,1580537608,39,33.73,135.98,48.2,17.22
65,hoi an,83,ID,1580537608,74,-9.83,124.43,82.67,4.05
66,wamba,6,NG,1580537608,24,8.93,8.6,64.45,3.71
67,hirara,40,JP,1580537608,48,24.8,125.28,64.4,8.05
68,mahebourg,40,MU,1580537578,70,-20.41,57.7,84.2,14.99
69,buluang,27,PH,1580537609,73,13.31,123.34,73.67,8.39
70,kaitangata,100,NZ,1580537609,56,-46.28,169.85,67.37,25.77
71,porto santo,75,PT,1580537609,100,41.15,-8.61,59.0,9.17
72,inta,100,RU,1580537609,77,66.03,60.17,0.68,15.12
73,padang,89,ID,1580537609,58,-0.95,100.35,84.07,1.74
74,vestmannaeyjar,97,IS,1580537609,70,63.44,-20.27,31.14,16.64
75,provideniya,100,RU,1580537609,96,64.38,-173.3,-13.49,7.96
76,tura,0,IN,1580537609,34,25.52,90.22,76.14,5.5
77,esperance,75,AU,1580537609,38,-33.87,121.9,73.4,14.99
78,hesla,0,IN,1580537609,29,24.07,85.88,70.11,1.52
79,ancud,90,CL,1580537609,100,-41.87,-73.82,60.8,13.87
80,santa vitoria do palmar,58,PH,1580537609,47,17.49,120.43,81.55,6.42
81,tilichiki,0,RU,1580537609,82,60.47,166.1,-19.55,8.72
82,yayva,100,RU,1580537609,91,59.33,57.26,23.0,1.01
83,avarua,25,CK,1580537609,88,-21.21,-159.78,78.8,4.7
84,goure,35,NE,1580537609,21,13.98,10.27,62.01,5.01
85,willemstad,40,CW,1580537609,78,12.11,-68.93,80.6,14.99
86,saint-philippe,34,RE,1580537609,65,-21.36,55.77,84.2,29.97
87,mitchell,1,US,1580537609,86,43.71,-98.03,28.4,10.29
88,ilulissat,30,GL,1580537609,77,69.22,-51.1,5.0,3.36
89,coihaique,90,CL,1580537609,72,-45.58,-72.07,59.0,5.82
90,riyadh,59,SA,1580537609,38,24.69,46.72,59.0,3.36
91,salalah,15,OM,1580537609,31,17.02,54.09,73.4,5.82
92,albany,90,US,1580537591,69,42.6,-73.97,35.01,0.81
93,sibolga,52,ID,1580537609,50,1.74,98.78,90.05,3.76
94,mazyr,100,BY,1580537609,97,52.05,29.25,33.44,4.65
95,evensk,83,RU,1580537609,62,61.95,159.23,-18.76,2.28
96,berdigestyakh,100,RU,1580537465,96,62.1,126.7,-7.8,4.61
97,atuona,33,PF,1580537610,76,-9.8,-139.03,81.54,15.59
98,sola,100,VU,1580537610,78,-13.88,167.55,84.2,12.55
99,taoudenni,0,ML,1580537338,18,22.68,-3.98,52.5,4.5
100,mataura,100,NZ,1580537610,53,-46.19,168.86,68.95,14.34
101,yellowknife,5,CA,1580537610,82,62.46,-114.35,-11.0,4.7
102,roebourne,0,AU,1580537610,8,-20.78,117.13,105.78,11.95
103,codrington,100,AU,1580537610,75,-38.27,141.97,60.04,14.92
104,xinyang,98,CN,1580537491,33,32.12,114.07,54.91,4.36
105,upernavik,92,GL,1580537610,98,72.79,-56.15,-15.99,8.12
106,huilong,0,CN,1580537610,37,31.81,121.66,55.0,1.68
107,bulgan,0,MN,1580537610,75,48.81,103.53,-0.92,5.77
108,arroyo,90,ES,1580537610,100,41.61,-4.8,54.0,19.46
109,pevek,11,RU,1580537610,100,69.7,170.31,-26.93,3.15
110,sao filipe,33,IN,1580537610,34,20.51,76.21,74.59,10.71
111,faanui,100,PF,1580537610,81,-16.48,-151.75,80.19,27.09
112,akureyri,90,IS,1580537610,100,65.68,-18.09,30.2,1.63
113,alice springs,1,US,1580537610,81,27.75,-98.07,57.2,3.36
114,khatanga,0,RU,1580537610,97,71.97,102.5,-33.52,7.49
115,saskylakh,100,RU,1580537610,96,71.92,114.08,-27.78,8.5
116,rantauprapat,67,ID,1580537611,60,2.1,99.83,88.84,2.46
117,bengkulu,10,ID,1580537611,54,-3.8,102.27,90.09,4.45
118,avdon,90,RU,1580537611,92,54.67,55.72,23.0,8.95
119,carutapera,96,BR,1580537611,78,-1.2,-46.02,80.6,13.47
120,kambove,100,CD,1580537611,96,-10.88,26.6,63.61,2.75
121,puerto ayacucho,75,ES,1580537611,100,36.59,-6.23,52.0,1.12
122,najran,0,SA,1580537611,26,17.49,44.13,59.0,4.7
123,keuruu,90,FI,1580537611,92,62.27,24.7,28.4,13.87
124,roma,90,US,1580537323,80,43.21,-75.46,30.99,5.82
125,chabahar,0,IR,1580537611,42,25.29,60.64,69.49,4.9
126,kostomuksha,100,RU,1580537611,96,64.57,30.58,-2.09,7.43
127,nioro,0,GM,1580537611,12,13.35,-15.75,69.96,6.76
128,kirakira,100,SB,1580537611,89,-10.45,161.92,78.3,10.16
129,kishi,23,NG,1580537611,20,9.08,3.85,64.27,4.83
130,pisco,75,PE,1580537611,88,-13.7,-76.22,72.0,3.36
131,san andres,35,ML,1580537611,13,13.3,-4.9,71.58,10.98
132,ballina,0,AU,1580537611,66,-28.87,153.57,93.2,20.8
133,vila velha,90,PT,1580537611,100,42.03,-8.16,57.99,5.82
134,mayumba,99,GA,1580537611,79,-3.43,10.66,81.55,3.8
135,vertientes,60,CU,1580537611,94,21.26,-78.15,68.0,5.55
136,prozor,75,BA,1580537611,87,43.82,17.61,42.8,1.12
137,hasaki,20,JP,1580537611,34,35.73,140.83,57.0,12.75
138,pecos,1,US,1580537611,58,31.42,-103.49,34.0,5.82
139,tucuma,99,BR,1580537611,86,-0.18,-50.05,76.08,8.97
140,miraflores,75,MX,1580537611,39,19.22,-98.81,62.6,5.82
141,hilo,90,US,1580537398,78,19.73,-155.09,75.0,5.82
142,nikolskoye,90,RU,1580537612,92,59.7,30.79,23.0,8.95
143,bogorodskoye,88,RU,1580537612,96,56.55,37.88,22.66,4.14
144,guanare,24,VE,1580537612,66,9.04,-69.74,77.95,1.99
145,anito,98,PH,1580537612,75,12.45,125.29,76.87,22.32
146,clyde river,90,US,1580537612,82,41.3,-82.98,33.01,3.76
147,kiruna,100,SE,1580537612,85,67.86,20.23,19.4,9.17
148,menongue,100,AO,1580537612,96,-14.66,17.69,63.54,3.58
149,kingsport,40,US,1580537601,93,36.55,-82.56,37.4,2.19
150,teacapan,100,MX,1580537612,77,22.55,-105.75,64.35,2.28
151,srandakan,86,ID,1580537612,65,-7.94,110.25,86.67,6.53
152,sao felix do xingu,33,IN,1580537612,34,20.51,76.21,74.59,10.71
153,trincomalee,31,LK,1580537612,51,8.57,81.23,85.51,7.34
154,mwinilunga,99,ZM,1580537612,98,-11.74,24.43,62.35,3.4
155,vostok,51,RU,1580537612,80,46.49,135.88,14.83,3.2
156,saldanha,0,ZA,1580537612,82,-33.01,17.94,60.8,2.24
157,maceio,20,BR,1580537612,88,-9.67,-35.74,77.0,2.24
158,tiarei,75,PF,1580537612,94,-17.53,-149.33,77.0,17.22
159,aksarka,99,RU,1580537612,92,66.56,67.8,-17.3,11.7
160,joshimath,17,IN,1580537612,46,30.57,79.57,34.02,3.71
161,zhigansk,95,RU,1580537612,95,66.77,123.37,-20.87,2.42
162,cosio,97,MX,1580537612,49,22.35,-102.3,43.05,12.35
163,goderich,46,CA,1580537612,91,43.75,-81.72,28.99,3.0
164,karratha,0,AU,1580537612,70,-20.74,116.85,82.17,20.67
165,lakes entrance,90,US,1580537612,92,61.61,-149.31,12.2,4.23
166,paamiut,80,GL,1580537613,61,61.99,-49.67,13.62,8.12
167,new norfolk,40,LR,1580537613,94,6.65,-10.59,75.2,5.82
168,necochea,1,AR,1580537613,88,-38.55,-58.74,60.01,1.99
169,ghatal,0,IN,1580537613,34,22.67,87.72,75.31,4.65
170,teguise,35,ES,1580537613,51,29.06,-13.56,59.0,6.93
171,medea,12,DZ,1580537613,93,36.26,2.75,42.8,6.42
172,lompoc,1,US,1580537336,71,34.64,-120.46,55.4,4.7
173,yacopi,33,CO,1580537613,94,5.46,-74.34,67.41,3.02
174,kemin,94,KG,1580537613,22,42.78,75.69,34.9,3.18
175,grindavik,100,IS,1580537613,86,63.84,-22.43,26.6,4.7
176,utica,90,US,1580537315,80,43.1,-75.23,33.01,5.82
177,araouane,0,ML,1580537613,16,18.9,-3.53,62.87,9.82
178,sidi ali,80,CF,1580537613,25,5.08,19.88,70.25,2.55
179,longyearbyen,90,SJ,1580537613,73,78.22,15.64,23.0,17.22
180,chumikan,100,RU,1580537613,86,54.72,135.31,8.78,2.26
181,catuday,0,PH,1580537613,57,16.29,119.81,77.32,2.17
182,winton,1,US,1580537613,87,37.39,-120.61,52.0,2.08
183,sallanches,34,FR,1580537613,100,45.94,6.63,45.0,2.24
184,haldwani,0,IN,1580537614,48,29.22,79.52,63.1,8.79
185,tuatapere,100,NZ,1580537614,59,-46.13,167.68,68.81,6.31
186,hithadhoo,70,MV,1580537614,70,-0.6,73.08,82.36,10.85
187,inhambane,20,MZ,1580537614,70,-23.86,35.38,84.2,9.17
188,mandalgovi,100,MN,1580537614,55,45.76,106.27,6.62,0.67
189,krasnoselkup,97,RU,1580537614,98,65.7,82.47,-20.13,8.01
190,port hardy,100,CD,1580537606,73,-7.03,29.76,75.97,5.68
191,flin flon,62,FR,1580537614,100,48.5,6.66,51.8,6.93
192,chuy,0,UY,1580537614,88,-33.7,-53.46,62.92,2.8
193,angoche,89,MZ,1580537614,88,-16.23,39.91,78.44,4.9
194,tufeni,62,RO,1580537614,81,44.37,24.78,41.0,6.15
195,pangkalanbuun,73,ID,1580537327,45,-2.68,111.62,95.18,2.15
196,young,0,UY,1580537614,75,-32.68,-57.63,68.0,4.23
197,cairns,42,AU,1580537614,62,-16.92,145.77,87.8,10.29
198,luderitz,90,NA,1580537614,82,-26.65,15.16,66.2,19.46
199,enshi,95,CN,1580537547,80,30.3,109.48,42.35,0.92
200,kuryk,100,KZ,1580537614,88,43.2,51.65,42.64,23.69
201,tirumullaivasal,81,IN,1580537614,68,11.23,79.83,80.47,8.46
202,khandbari,14,NP,1580537614,66,27.37,87.2,42.71,6.51
203,matara,0,LK,1580537614,43,5.95,80.54,88.18,7.38
204,dormidontovka,59,RU,1580537614,92,47.77,134.91,2.73,3.89
205,cherskiy,9,RU,1580537614,98,68.75,161.3,-31.74,4.99
206,tessalit,0,ML,1580537615,17,20.2,1.01,63.37,7.65
207,tongren,100,CN,1580537615,89,27.72,109.19,45.05,3.98
208,lucapa,100,AO,1580537615,89,-8.42,20.74,68.67,1.92
209,opuwo,36,NA,1580537615,68,-18.06,13.84,69.22,3.67
210,san cristobal,35,ML,1580537611,13,13.3,-4.9,71.58,10.98
211,cambridge,90,CA,1580537586,86,43.36,-80.31,30.0,2.24
212,thompson,75,CA,1580537615,100,55.74,-97.86,26.6,5.82
213,severo-kurilsk,50,RU,1580537601,78,50.68,156.12,12.04,5.41
214,baracoa,25,CU,1580537615,78,20.35,-74.5,76.39,4.72
215,north bend,100,FR,1580537615,93,50.33,3.67,53.6,14.99
216,grand gaube,1,US,1580537615,86,38.88,-109.5,27.0,3.36
217,concordia,0,AR,1580537615,90,-31.39,-58.02,63.0,4.25
218,surgut,90,RU,1580537400,77,61.25,73.42,-2.2,13.42
219,saint-ambroise,90,CA,1580537615,92,48.55,-71.33,8.01,2.24
220,magadan,0,RU,1580537615,67,59.57,150.8,-2.92,1.7
221,arraial do cabo,75,BR,1580537615,94,-22.84,-46.65,77.0,2.26
222,constitucion,0,CL,1580537615,81,-35.33,-72.42,57.74,2.01
223,san patricio,35,ML,1580537611,13,13.3,-4.9,71.58,10.98
224,nsanje,91,MW,1580537615,93,-16.92,35.26,73.78,2.17
225,chokurdakh,100,RU,1580537615,97,70.63,147.92,-21.84,3.98
226,verkhnevilyuysk,98,RU,1580537615,96,63.45,120.32,-15.02,4.32
227,nome,90,US,1580537615,76,64.5,-165.41,-5.8,8.05
228,linguere,0,SN,1580537615,12,15.4,-15.12,67.77,9.71
229,santa maria,58,PH,1580537609,47,17.49,120.43,81.55,6.42
230,ketchikan,90,US,1580537616,93,55.34,-131.65,35.6,14.99
231,svetlogorsk,100,BY,1580537616,96,52.63,29.73,33.55,5.59
232,changji,90,CN,1580537616,85,44.02,87.32,10.4,4.47
233,kavieng,84,PG,1580537575,75,-2.57,150.8,84.83,14.63
234,santa isabel,58,PH,1580537616,47,17.49,120.43,81.55,6.42
235,enumclaw,90,US,1580537616,76,47.2,-121.99,60.8,13.87
236,iqaluit,90,CA,1580537616,84,63.75,-68.51,0.0,8.05
237,vilyuysk,99,RU,1580537616,98,63.76,121.62,-13.56,2.33
238,rio gallegos,75,GR,1580537616,100,38.3,21.78,46.4,5.46
239,mar del plata,40,ES,1580537616,93,43.4,-4.01,57.99,7.81
240,viedma,0,AR,1580537564,54,-40.81,-63.0,65.44,11.81
241,natal,40,BR,1580537473,88,-5.79,-35.21,78.8,3.36
242,sabha,0,LY,1580537616,36,27.04,14.43,54.99,7.99
243,katsuura,20,JP,1580537345,34,35.13,140.3,55.99,6.93
244,carnarvon,0,AU,1580537616,51,-24.87,113.63,80.6,24.16
245,cururupu,100,BR,1580537616,98,-1.83,-44.87,73.35,1.34
246,ananas,16,HT,1580537616,94,19.25,-71.96,67.37,1.12
247,lima,40,PE,1580537593,88,-12.04,-77.03,73.4,10.29
248,ahipara,30,NZ,1580537616,58,-35.17,173.17,81.0,5.01
249,focuri,40,RO,1580537617,66,47.35,27.22,48.2,8.05
250,tongliao,0,CN,1580537617,72,43.61,122.27,20.7,10.02
251,bethel,20,US,1580537617,86,41.37,-73.41,37.0,2.51
252,besuki,82,ID,1580537617,70,-7.73,113.7,83.82,7.31
253,funadhoo,7,MV,1580537617,70,6.15,73.27,81.79,12.41
254,nanortalik,76,GL,1580537617,67,60.14,-45.24,19.2,18.95
255,inongo,85,CD,1580537617,77,-1.95,18.27,75.94,2.77
256,myaundzha,0,RU,1580537526,89,63.05,147.19,-23.82,6.08
257,lalibela,58,ET,1580537617,37,12.03,39.03,64.31,2.1
258,pendra,0,IN,1580537617,30,22.77,81.95,68.27,4.65
259,dunedin,100,NZ,1580537391,82,-45.87,170.5,62.01,1.99
260,chambery,90,FR,1580537617,93,45.57,5.93,48.2,4.7
261,salamiyah,19,SY,1580537617,70,35.01,37.05,45.91,19.35
262,sinnamary,88,GF,1580537617,75,5.38,-52.95,78.94,18.28
263,chengde,14,CN,1580537617,37,40.97,117.94,25.63,3.87
264,birobidzhan,98,RU,1580537617,89,48.8,132.95,4.62,3.27
265,asau,75,RO,1580537617,80,46.43,26.4,48.0,1.12
266,alakurtti,100,RU,1580537617,85,66.97,30.35,-0.99,5.99
267,hamilton,90,US,1580537406,97,39.18,-84.53,37.0,2.59
268,stephenville,1,US,1580537617,61,32.22,-98.2,44.01,4.7
269,mount isa,40,GB,1580537617,70,53.66,-1.85,50.0,20.8
270,santa helena de goias,58,PH,1580537616,47,17.49,120.43,81.55,6.42
271,mayo,1,US,1580537424,100,38.89,-76.51,39.0,2.77
272,caravelas,0,BR,1580537618,83,-17.71,-39.25,79.43,11.59
273,along,68,IN,1580537618,55,28.17,94.77,64.15,1.28
274,komsomolskiy,13,UZ,1580537471,32,40.43,71.72,40.91,4.85
275,kismayo,100,SO,1580537618,77,-0.36,42.55,81.37,13.42
276,mehamn,58,NO,1580537618,97,71.04,27.85,8.71,22.32
277,kaeo,0,NZ,1580537618,58,-35.1,173.78,81.0,5.01
278,hofn,63,IS,1580537618,61,64.25,-15.21,35.37,12.24
279,olafsvik,99,IS,1580537534,80,64.89,-23.71,31.01,15.08
280,qazanbulaq,90,AZ,1580537618,60,40.62,46.65,42.8,18.34
281,victoria,20,HK,1580537482,49,22.29,114.16,71.01,18.34
282,warrington,40,GB,1580537618,76,53.39,-2.58,50.0,20.8
283,ponferrada,86,ES,1580537618,94,42.55,-6.6,52.0,3.76
284,kodinsk,97,RU,1580537618,91,58.69,99.18,-11.67,4.94
285,sturgis,40,US,1580537618,92,41.8,-85.42,35.01,3.36
286,santa rosa,58,PH,1580537618,47,17.49,120.43,81.55,6.42
287,lebu,14,CL,1580537618,98,-37.62,-73.65,57.42,4.59
288,west wendover,1,US,1580537618,86,31.8,-97.09,45.0,7.54
289,ranong,74,TH,1580537618,61,9.97,98.63,86.18,13.6
290,port lincoln,100,CD,1580537618,73,-7.03,29.76,75.97,5.68
291,tuktoyaktuk,20,CA,1580537581,66,69.45,-133.04,-29.2,10.29
292,bilibino,83,RU,1580537619,99,68.05,166.44,-33.66,2.93
293,ushtobe,84,KZ,1580537619,67,45.25,77.98,22.96,2.13
294,catio,67,GW,1580537619,68,11.28,-15.25,66.4,2.13
295,maposeni,75,TZ,1580537619,94,-10.58,35.4,68.0,4.7
296,oranjemund,95,NA,1580537619,84,-28.55,16.43,63.32,10.18
297,bandipur,5,NP,1580537619,49,27.93,84.42,64.51,4.52
298,vila franca do campo,90,PT,1580537611,100,42.03,-8.16,57.99,5.82
299,capinopolis,82,BR,1580537619,94,-18.68,-49.57,71.29,1.95
300,marawi,95,PH,1580537619,79,8.0,124.29,82.0,11.01
301,zyryanka,99,RU,1580537526,99,65.75,150.85,-12.73,3.85
302,burnie,67,AU,1580537619,86,-41.07,145.92,69.01,4.0
303,abu dhabi,0,IN,1580537619,17,24.6,72.7,72.25,9.24
304,rabaul,100,PG,1580537619,75,-4.2,152.17,84.81,17.07
305,shitanjing,100,CN,1580537619,35,39.23,106.34,33.28,3.24
306,munsingen,75,DE,1580537619,81,48.41,9.5,53.01,9.17
307,sao joao da barra,33,IN,1580537610,34,20.51,76.21,74.59,10.71
308,fort saint john,75,NL,1580537619,93,52.65,6.39,54.0,16.11
309,fort nelson,75,NL,1580537619,93,52.65,6.39,54.0,16.11
310,bandarbeyla,87,SO,1580537619,66,9.49,50.81,76.98,16.55
311,nemuro,75,JP,1580537619,73,43.32,145.57,26.6,11.41
312,mandali,19,IQ,1580537619,42,33.75,45.55,51.84,6.71
313,morant bay,20,JM,1580537619,74,17.9,-76.43,78.8,8.05
314,bambous virieux,40,MU,1580537620,70,-20.26,57.41,84.2,14.99
315,turgenevo,92,RU,1580537620,95,54.85,46.33,21.18,2.26
316,geraldton,79,AU,1580537620,39,-28.77,114.6,80.6,29.97
317,kazachinskoye,99,RU,1580537620,92,57.7,93.28,-10.52,3.71
318,culaba,73,PH,1580537620,65,11.66,124.54,79.81,8.32
319,totness,84,SR,1580537620,76,5.88,-56.32,79.29,17.72
320,dingle,96,PH,1580537620,78,11.0,122.67,77.0,15.28
321,talara,31,PE,1580537620,91,-4.58,-81.27,73.67,12.57
322,grand river south east,1,US,1580537620,86,38.88,-109.5,27.0,3.36
323,qaqortoq,0,GL,1580537620,45,60.72,-46.03,3.2,6.93
324,sergeyevka,72,KZ,1580537620,80,53.88,67.42,9.99,6.8
325,kavaratti,43,IN,1580537620,68,10.57,72.64,79.5,6.06
326,leshukonskoye,62,RU,1580537620,99,64.9,45.76,-22.65,2.55
327,nha trang,0,NP,1580537620,54,27.91,86.72,6.42,12.93
328,beyneu,100,KZ,1580537620,66,45.32,55.2,40.66,11.3
329,itaquyry,14,PY,1580537620,94,-24.93,-55.22,68.16,2.1
330,rostock,75,DE,1580537620,87,54.09,12.14,52.0,13.87
331,katangli,64,RU,1580537620,94,51.71,143.23,8.96,3.02
332,esmeralda,99,CU,1580537620,94,21.85,-78.12,68.0,5.1
333,sao jose da coroa grande,33,IN,1580537612,34,20.51,76.21,74.59,10.71
334,hopelchen,50,MX,1580537621,97,19.77,-89.85,70.86,2.26
335,gazanjyk,86,TM,1580537407,38,39.24,55.52,51.08,5.26
336,hambantota,20,LK,1580537351,66,6.12,81.12,86.0,16.11
337,toora-khem,86,RU,1580537621,88,52.47,96.11,-6.16,1.9
338,gloucester,40,GB,1580537621,87,51.87,-2.24,48.99,18.34
339,santa cruz,58,PH,1580537609,47,17.49,120.43,81.55,6.42
340,drochia,100,MD,1580537621,81,48.03,27.82,43.34,12.26
341,bathsheba,40,BB,1580537621,78,13.22,-59.52,78.8,14.99
342,bereda,40,ES,1580537621,87,43.27,-7.54,62.01,11.41
343,vila,90,PT,1580537621,100,42.03,-8.16,57.99,5.82
344,dakar,0,SN,1580537621,36,14.69,-17.44,75.2,17.22
345,port hedland,100,CD,1580537606,73,-7.03,29.76,75.97,5.68
346,navirai,97,BR,1580537621,96,-23.07,-54.19,72.25,2.44
347,havelock,90,US,1580537621,93,34.88,-76.9,46.4,17.22
348,bantry,40,IE,1580537621,81,51.68,-9.45,42.8,16.11
349,trairi,100,BR,1580537621,91,-3.28,-39.27,71.8,4.74
350,ixtapa,90,MX,1580537559,83,20.7,-105.2,72.0,2.35
351,kahului,20,US,1580537621,64,20.89,-156.47,75.2,16.11
352,arlit,1,NE,1580537621,21,18.74,7.39,59.74,3.18
353,renqiu,56,CN,1580537621,17,38.7,116.09,42.55,7.4
354,husavik,90,IS,1580537622,100,66.04,-17.34,30.2,12.8
355,torremolinos,20,ES,1580537622,77,36.62,-4.5,60.8,17.22
356,nizhniy kuranakh,0,RU,1580537622,81,45.39,39.24,37.0,6.71
357,fortuna,90,US,1580537622,100,40.6,-124.16,48.99,2.93
358,alofi,90,NU,1580537622,79,-19.06,-169.92,84.2,11.41
359,faya,40,SA,1580537622,76,18.39,42.45,57.2,13.87
360,gasa,40,PS,1580537524,81,31.5,34.47,50.0,9.17
361,hauterive,43,FR,1580537622,87,46.09,3.45,50.0,12.75
362,parabel,100,RU,1580537622,95,58.7,81.48,1.67,6.62
363,kondopoga,90,RU,1580537622,92,62.21,34.26,10.4,4.47
364,kruisfontein,66,ZA,1580537622,72,-34.0,24.73,69.22,2.35
365,aksu,0,CN,1580537508,50,41.12,80.26,30.45,3.15
366,pangnirtung,20,CA,1580537622,69,66.15,-65.71,-13.0,3.36
367,bubaque,14,GW,1580537622,56,11.28,-15.83,79.39,6.78
368,bam,0,IR,1580537622,27,29.11,58.36,58.48,0.81
369,aklavik,90,CA,1580537622,74,68.22,-135.01,-27.4,2.24
370,zaysan,6,KZ,1580537622,92,47.47,84.87,-1.08,2.64
371,asfi,3,MA,1580537622,60,32.3,-9.24,53.92,7.43
372,maniitsoq,0,GL,1580537622,70,65.42,-52.9,12.47,1.77
373,christchurch,100,NZ,1580537532,82,-43.53,172.63,64.99,16.11
374,shimanovsk,100,RU,1580537622,91,52.0,127.7,5.31,0.43
375,pochutla,12,MX,1580537622,69,15.74,-96.47,79.57,4.07
376,eyl,67,SO,1580537622,72,7.98,49.82,76.3,20.27
377,vardo,95,NO,1580537622,90,70.37,31.11,16.56,28.9
378,pontianak,40,ID,1580537400,59,-0.03,109.33,89.6,5.82
379,haines junction,90,US,1580537623,68,59.23,-135.44,32.0,8.05
380,atar,0,MR,1580537623,13,20.52,-13.05,60.06,12.08
381,olenino,61,RU,1580537623,97,56.21,33.49,27.77,2.93
382,astana,100,KZ,1580537623,71,51.18,71.45,3.2,4.47
383,alugan,88,PH,1580537623,74,12.22,125.48,77.52,18.66
384,batsfjord,95,NO,1580537623,94,70.63,29.72,2.59,12.48
385,macomer,20,IT,1580537623,100,40.26,8.77,51.8,2.24
386,tiznit,0,MA,1580537623,39,29.58,-9.5,52.45,1.9
387,abu jubayhah,0,IN,1580537623,17,24.6,72.7,72.25,9.24
388,gardner,90,US,1580537623,96,42.58,-72.0,34.0,5.57
389,kubuta,20,SZ,1580537623,65,-26.88,31.48,78.8,9.17
390,portland,90,US,1580537617,71,45.52,-122.68,59.0,9.17
391,talcahuano,0,CL,1580537623,93,-36.72,-73.12,60.8,9.17
392,san ramon,35,ML,1580537611,13,13.3,-4.9,71.58,10.98
393,cockburn harbour,84,AU,1580537623,37,-32.08,141.0,96.8,17.22
394,mount gambier,40,GB,1580537623,70,53.66,-1.85,50.0,20.8
395,klaksvik,57,FO,1580537623,74,62.23,-6.59,33.8,13.87
396,cortez,1,US,1580537623,47,37.35,-108.59,33.8,6.76
397,hovd,0,MN,1580537623,55,48.01,91.64,2.8,4.0
398,sur,0,OM,1580537624,49,22.57,59.53,69.46,4.14
399,iquitos,100,PE,1580537624,94,-3.75,-73.25,78.8,3.36
400,fairbanks,90,US,1580537571,75,64.84,-147.72,-14.8,1.07
401,vanimo,100,PG,1580537624,78,-2.67,141.3,79.52,12.15
402,turukhansk,100,RU,1580537605,96,65.82,87.98,-20.72,7.36
403,pinczow,100,PL,1580537624,85,50.52,20.53,48.99,5.01
404,sulingen,75,DE,1580537624,93,52.68,8.8,53.6,17.22
405,margate,20,GB,1580537624,93,51.38,1.39,51.01,14.99
406,hohhot,100,CN,1580537624,45,40.81,111.65,26.6,2.24
407,curaca,99,BR,1580537624,77,-8.99,-39.91,75.02,7.99
408,moroni,20,KM,1580537624,79,-11.7,43.26,84.2,2.24
409,bay roberts,90,US,1580537624,86,43.73,-84.02,32.0,6.62
410,okhotsk,49,RU,1580537624,77,59.38,143.3,-2.7,7.43
411,georgiyevka,100,KZ,1580537624,44,43.04,74.71,37.4,6.71
412,kostino,97,RU,1580537624,94,58.91,53.27,23.77,8.43
413,sao geraldo do araguaia,33,IN,1580537612,34,20.51,76.21,74.59,10.71
414,khasan,17,RU,1580537624,48,42.43,130.64,31.55,11.14
415,babushkin,98,RU,1580537624,87,51.71,105.86,0.48,6.42
416,qasigiannguit,30,GL,1580537425,84,68.82,-51.19,3.2,5.82
417,lorengau,100,PG,1580537624,77,-2.02,147.27,84.06,22.5
418,muravlenko,100,RU,1580537555,96,63.79,74.52,-16.73,17.54
419,siverskiy,90,RU,1580537624,92,59.35,30.08,23.0,8.95
420,orangeburg,90,US,1580537624,100,33.49,-80.86,42.8,5.82
421,ipixuna,75,BR,1580537625,94,-1.76,-48.8,77.0,4.7
422,daru,100,PG,1580537625,82,-9.08,143.21,84.65,3.42
423,luwuk,100,ID,1580537327,66,-0.95,122.79,86.61,12.03
424,jalu,0,LY,1580537625,63,29.03,21.55,52.9,3.06
425,makarov,0,RU,1580537625,73,48.63,142.8,9.46,0.65
426,ostrovnoy,100,RU,1580537625,100,68.05,39.51,-9.13,5.53
427,mineral wells,90,US,1580537625,100,39.4,-78.95,37.0,6.93
428,pasni,0,PK,1580537625,14,25.26,63.47,71.78,6.62
429,narsaq,17,GL,1580537598,45,60.92,-46.05,3.2,6.93
430,tarakan,100,ID,1580537625,66,3.3,117.63,84.45,11.56
431,ledyard,90,US,1580537625,100,41.44,-72.01,37.99,4.7
432,cockburn town,84,AU,1580537625,37,-32.08,141.0,96.8,17.22
433,waipawa,65,NZ,1580537625,72,-41.41,175.52,69.01,25.28
434,srivardhan,16,IN,1580537625,44,18.03,73.02,79.21,3.27
435,ibimirim,100,BR,1580537625,82,-8.54,-37.69,72.81,5.3
436,tubmanburg,43,LR,1580537625,98,6.87,-10.82,70.97,1.97
437,casablanca,33,MA,1580537612,87,33.59,-7.62,46.4,2.35
438,tazovskiy,43,RU,1580537625,94,67.47,78.7,-15.7,1.68
439,awbari,0,LY,1580537625,38,26.59,12.78,51.91,3.27
440,huarmey,100,PE,1580537625,75,-10.07,-78.15,72.79,2.91
441,mezen,2,RU,1580537625,98,65.85,44.24,-20.76,4.05
442,port antonio,100,CD,1580537606,73,-7.03,29.76,75.97,5.68
443,tyumentsevo,0,RU,1580537626,88,53.32,81.5,1.33,5.41
444,mahalapye,0,BW,1580537626,44,-23.1,26.81,74.59,3.98
445,san quintin,35,ML,1580537626,13,13.3,-4.9,71.58,10.98
446,dukat,60,RU,1580537626,96,62.55,155.55,-17.23,5.88
447,esso,0,RU,1580537626,40,55.93,158.7,-9.6,1.3
448,palu,57,ID,1580537626,55,-0.89,119.87,81.64,4.41
449,palmer,90,US,1580537626,98,42.16,-72.33,34.0,3.36
450,maputo,0,MZ,1580537626,69,-25.97,32.59,80.6,6.93
451,ugoofaaru,4,MV,1580537626,73,5.67,73.0,81.54,15.28
452,flinders,46,AU,1580537626,29,-34.58,150.86,106.0,12.75
453,modica,100,IT,1580537626,100,36.85,14.77,48.99,5.82
454,urumqi,90,CN,1580537626,85,43.8,87.6,10.4,4.47
455,namibe,96,AO,1580537626,87,-15.2,12.15,76.42,5.7
456,chake chake,74,CN,1580537626,44,23.86,103.05,63.03,14.97
457,grand centre,1,US,1580537626,86,38.88,-109.5,27.0,3.36
458,acapulco,20,MX,1580537444,83,16.86,-99.89,75.2,3.36
459,keflavik,100,IS,1580537626,86,64.0,-22.56,27.0,4.7
460,kedrovyy,94,RU,1580537626,70,56.17,91.82,-5.8,3.24
461,wabana,90,CA,1580537626,78,47.63,-52.95,19.0,19.46
462,radhanpur,0,IN,1580537626,17,23.83,71.6,75.31,11.88
463,phan thiet,0,TH,1580537626,61,19.55,99.74,81.0,3.36
464,jardim,94,BR,1580537627,95,-21.48,-56.14,72.27,1.34
465,talaya,0,RU,1580537526,71,61.38,152.75,-17.37,3.74
466,baker city,40,US,1580537627,93,30.59,-91.17,50.0,4.7
467,moron,0,AR,1580537627,56,-34.65,-58.62,73.4,4.7
468,mabaruma,42,GY,1580537627,99,8.2,-59.78,70.86,1.61
469,coahuayana,40,MX,1580537627,77,18.73,-103.68,66.2,4.43
470,pallasovka,94,RU,1580537627,92,50.05,46.88,26.92,5.57
471,athmallik,25,IN,1580537627,46,20.72,84.53,82.47,2.75
472,belyy yar,41,RU,1580537627,97,55.84,32.94,28.15,3.11
473,raudeberg,100,NO,1580537627,93,61.99,5.14,39.2,11.41
474,deputatskiy,98,RU,1580537442,92,69.3,139.9,-18.98,5.28
475,tougan,25,BF,1580537627,14,13.07,-3.07,69.46,8.99
476,konosha,82,RU,1580537627,98,60.97,40.26,-5.17,1.34
477,kommunisticheskiy,100,RU,1580537627,94,61.68,64.48,13.17,9.04
478,guatire,72,VE,1580537627,94,10.48,-66.54,75.2,3.36
479,gat,40,IL,1580537475,81,31.61,34.76,50.0,9.17
480,kloulklubed,75,PW,1580537627,62,7.04,134.26,87.8,12.75
481,shenxian,100,CN,1580537627,46,36.24,115.67,49.55,5.35
482,berlevag,85,NO,1580537627,85,70.86,29.09,17.98,28.86
483,suzaka,20,JP,1580537627,38,36.65,138.32,48.99,6.93
484,comodoro rivadavia,100,BR,1580537627,85,-13.66,-59.79,72.59,2.13
485,qinzhou,100,CN,1580537627,69,21.95,108.62,64.85,13.58
486,harper,56,LR,1580537628,92,4.38,-7.72,75.72,1.72
487,tshikapa,100,CD,1580537628,95,-6.42,20.8,70.79,1.45
488,mahanoro,46,MG,1580537628,70,-19.9,48.8,80.42,8.46
489,cam pha,0,AR,1580537628,41,-38.98,-67.82,75.2,11.41
490,loyga,93,RU,1580537628,97,61.08,44.61,-2.02,1.81
491,corum,100,TR,1580537628,96,40.5,34.75,27.34,3.71
492,mitsamiouli,20,KM,1580537628,79,-11.38,43.28,84.2,2.24
493,tandil,5,AR,1580537628,61,-37.32,-59.13,64.99,1.01
494,pangai,75,TO,1580537628,83,-19.8,-174.35,82.4,9.17
495,vaitape,100,PF,1580537628,81,-16.52,-151.75,80.19,27.09
496,orotukan,51,RU,1580537526,74,62.27,151.7,-19.7,3.0
497,burhar,0,IN,1580537628,32,23.22,81.53,66.02,6.53
498,irece,14,BR,1580537437,80,-11.3,-41.86,64.51,5.97
499,port-gentil,20,GA,1580537628,94,-0.72,8.78,78.8,3.36
500,acarau,100,BR,1580537473,94,-2.89,-40.12,71.71,4.07
501,tuy hoa,20,PH,1580537628,51,14.02,120.73,86.0,12.75
502,kachiry,39,KZ,1580537628,78,53.07,76.1,2.86,10.96
503,varazdin,0,HR,1580537628,93,46.3,16.34,43.0,3.36
504,hervey bay,40,US,1580537628,93,33.5,-93.78,43.0,3.36
505,gisborne,22,NZ,1580537628,70,-38.65,178.0,82.0,3.0
506,hammerfest,20,NO,1580537628,73,70.66,23.68,19.4,46.08
507,lewiston,90,US,1580537628,74,44.1,-70.21,34.0,2.15
508,hami,0,CN,1580537568,75,42.8,93.45,15.17,2.95
509,mezhdurechensk,59,RU,1580537628,72,53.69,88.06,13.1,1.86
510,portobelo,45,PA,1580537629,88,9.55,-79.65,78.8,5.19
511,usogorsk,99,RU,1580537629,98,63.41,48.69,-5.69,2.73
512,tukrah,31,LY,1580537629,80,32.53,20.58,55.2,5.95
513,zaragoza,75,ES,1580537629,100,41.66,-0.88,50.0,6.93
514,skjervoy,100,NO,1580537629,70,70.03,20.97,23.77,25.93
515,aripuana,56,BR,1580537629,96,-9.17,-60.63,73.06,0.54
516,lhokseumawe,46,ID,1580537331,59,5.18,97.15,85.1,4.88
517,tambura,99,SS,1580537629,19,5.6,27.47,73.27,7.27
518,tanjong sepat,100,ID,1580537629,85,-3.22,120.23,77.07,2.55
519,vanavara,96,RU,1580537629,92,60.34,102.28,-15.02,2.98
520,bayevo,0,RU,1580537629,87,53.28,80.77,1.71,5.73
521,bonfim,100,BR,1580537629,77,3.08,-59.95,77.9,8.57
522,tutoia,95,BR,1580537629,95,-2.76,-42.27,72.75,0.83
523,aguimes,25,ES,1580537629,22,27.91,-15.45,66.2,11.41
524,bani walid,8,DO,1580537629,81,18.28,-70.33,75.99,3.0
525,pimentel,40,PE,1580537629,83,-6.84,-79.93,73.4,11.41
526,kristiansund,90,NO,1580537346,97,63.11,7.73,33.8,10.29
527,shiyan,100,CN,1580537630,42,32.65,110.78,48.0,5.68
528,sept-iles,5,CA,1580537618,84,50.2,-66.38,-2.2,2.24
529,kudahuvadhoo,36,MV,1580537630,78,2.67,72.89,81.14,15.08
530,santiago del estero,0,CL,1580537482,52,-33.46,-70.65,70.0,9.17
531,itarantim,0,BR,1580537630,97,-15.66,-40.07,66.74,0.65
532,lieksa,94,FI,1580537630,93,63.32,30.02,3.96,7.38
533,acari,84,PE,1580537630,92,-15.43,-74.62,66.24,4.41
534,caiaponia,95,BR,1580537630,94,-16.96,-51.81,69.62,0.31
535,yulara,35,AU,1580537630,39,-25.24,130.99,95.0,17.22
536,sechura,14,PE,1580537630,86,-5.56,-80.82,73.38,8.41
537,kununurra,75,AU,1580537630,39,-15.77,128.73,96.8,6.93
538,popondetta,100,PG,1580537630,88,-8.75,148.25,80.92,4.94
539,port blair,100,CD,1580537630,73,-7.03,29.76,75.97,5.68
540,butajira,98,ET,1580537630,64,8.12,38.37,64.35,10.63
=======
0,castro,100,BR,1580356866,98,-24.79,-50.01,66.25,2.39
1,vaini,75,TO,1580357137,79,-21.2,-175.2,86.0,5.82
2,nanortalik,0,GL,1580356937,48,60.14,-45.24,22.08,25.99
3,severo-kurilsk,100,RU,1580356935,85,50.68,156.12,23.07,1.36
4,bluff,100,NZ,1580356937,51,-46.6,168.33,71.01,21.0
5,vangaindrano,100,MG,1580356836,95,-23.35,47.6,73.83,0.96
6,yarim,2,YE,1580356937,48,14.3,44.38,47.48,0.87
7,rikitea,100,PF,1580357044,72,-23.12,-134.97,79.39,6.96
8,santa rosa,0,PH,1580356963,58,17.49,120.43,78.48,8.01
9,bengkulu,100,ID,1580357138,47,-3.8,102.27,84.54,5.46
10,pampa,90,US,1580356937,92,35.54,-100.96,35.6,8.05
11,lagunas,56,PE,1580356937,73,-5.23,-75.68,78.57,0.38
12,saskylakh,92,RU,1580356929,98,71.92,114.08,-15.14,2.82
13,hobart,0,AU,1580356935,11,-42.88,147.33,96.8,13.87
14,provideniya,0,RU,1580356938,63,64.38,-173.3,-5.8,4.47
15,kendari,74,ID,1580357138,71,-3.94,122.5,86.41,5.01
16,bethel,5,US,1580356854,68,41.37,-73.41,32.0,5.82
17,tiksi,100,RU,1580356825,94,71.69,128.87,-14.58,2.82
18,ornskoldsvik,100,SE,1580357139,100,63.29,18.72,33.8,4.7
19,kaitangata,100,NZ,1580356931,57,-46.28,169.85,64.78,26.11
20,busselton,66,AU,1580357043,31,-33.65,115.33,73.99,15.28
21,mataura,70,NZ,1580356929,51,-46.19,168.86,71.01,21.0
22,yellowknife,90,CA,1580356929,92,62.46,-114.35,17.6,5.82
23,avarua,6,CK,1580357139,74,-21.21,-159.78,82.4,8.05
24,ancud,98,CL,1580357139,87,-41.87,-73.82,44.6,4.7
25,kristiansund,97,NO,1580357139,80,63.11,7.73,35.6,9.17
26,mayo,1,US,1580357139,79,38.89,-76.51,35.01,9.89
27,hilo,90,US,1580357139,65,19.73,-155.09,78.8,13.87
28,san cristobal,33,ML,1580357139,9,13.3,-4.9,70.36,7.4
29,norman wells,100,US,1580357109,78,35.22,-97.44,37.99,4.7
30,port alfred,100,CD,1580356940,75,-7.03,29.76,73.47,2.77
31,twin falls,1,US,1580356940,87,48.16,-123.95,46.0,6.93
32,illapel,0,CL,1580357140,77,-31.63,-71.17,55.85,1.68
33,hermanus,0,ZA,1580357140,86,-34.42,19.23,62.01,5.99
34,ushuaia,75,AR,1580357281,70,-54.8,-68.3,46.4,23.04
35,jamestown,1,US,1580357281,92,42.1,-79.24,21.0,6.93
36,skjervoy,89,NO,1580356941,76,70.03,20.97,20.14,23.29
37,san patricio,33,ML,1580356802,9,13.3,-4.9,70.36,7.4
38,mys shmidta,93,RU,1580356840,97,62.06,48.62,-0.44,3.13
39,kapaa,75,US,1580356775,61,22.08,-159.32,78.8,10.29
40,katsuura,20,JP,1580356941,42,35.13,140.3,62.6,12.75
41,thompson,90,CA,1580356822,92,55.74,-97.86,15.8,9.17
42,matagami,1,CA,1580356951,83,49.75,-77.63,-11.2,3.44
43,chara,86,RU,1580357041,75,56.91,118.26,3.0,2.33
44,zeya,35,RU,1580356942,87,53.75,127.27,0.48,0.94
45,albany,1,US,1580356557,100,42.6,-73.97,24.01,3.36
46,arucas,100,ES,1580356942,39,28.12,-15.52,72.0,5.82
47,roald,72,NO,1580357041,86,62.58,6.13,37.99,12.75
48,puerto ayora,90,ES,1580356846,100,36.59,-6.23,48.99,2.24
49,charters towers,90,US,1580357041,84,38.57,-83.43,35.6,5.82
50,ostrovnoy,0,RU,1580356942,95,68.05,39.51,0.66,7.36
51,lebu,2,CL,1580357042,85,-37.62,-73.65,49.23,4.29
52,margate,99,GB,1580356909,93,51.38,1.39,48.2,16.11
53,cape town,0,CL,1580356839,37,-36.41,-71.9,66.2,8.05
54,bonavista,100,CA,1580356943,87,48.65,-53.11,30.0,4.0
55,saint-philippe,17,RE,1580356818,65,-21.36,55.77,79.0,4.7
56,kieta,99,PG,1580357042,65,-6.22,155.63,87.55,7.72
57,murray bridge,90,US,1580356943,86,40.67,-111.89,37.4,1.52
58,hobyo,95,SO,1580357042,76,5.35,48.53,72.3,13.53
59,barrow,1,US,1580356943,82,71.29,-156.79,-25.6,9.17
60,east london,90,IS,1580356943,100,65.0,-15.0,30.2,8.05
61,shimoda,20,JP,1580357042,58,34.67,138.95,59.0,19.46
62,port elizabeth,100,CD,1580356940,75,-7.03,29.76,73.47,2.77
63,atuona,0,PF,1580356943,77,-9.8,-139.03,80.92,14.61
64,pisco,100,PE,1580357043,88,-13.7,-76.22,73.4,11.41
65,altamira,100,BR,1580356792,96,-3.2,-52.21,74.03,2.91
66,aklavik,90,CA,1580356944,68,68.22,-135.01,-20.2,8.05
67,vila velha,90,PT,1580356944,93,42.03,-8.16,61.0,13.87
68,dharmadam,20,IN,1580356944,88,11.78,75.43,77.0,5.82
69,kudahuvadhoo,0,MV,1580357143,77,2.67,72.89,80.46,15.32
70,wexford,100,IE,1580356667,84,52.33,-6.46,48.99,7.0
71,anloga,23,GH,1580356807,94,5.79,0.9,78.8,4.7
72,asyut,0,EG,1580356944,70,27.18,31.18,44.6,9.17
73,qaanaaq,100,GL,1580356944,95,77.48,-69.36,-19.32,1.34
74,cherskiy,98,RU,1580356944,96,68.75,161.3,-24.88,7.52
75,yoichi,75,JP,1580356945,98,43.2,140.77,37.99,13.87
76,lamar,90,US,1580356945,86,33.67,-95.58,42.01,9.17
77,forio,0,IT,1580356945,93,40.73,13.86,52.0,2.24
78,kargil,97,IN,1580356945,95,34.57,76.1,-5.73,1.88
79,necochea,44,AR,1580357044,95,-38.55,-58.74,48.99,1.01
80,geraldton,40,AU,1580356945,38,-28.77,114.6,77.0,18.34
81,pevek,100,RU,1580356945,97,69.7,170.31,-18.47,6.91
82,karratha,0,AU,1580357044,48,-20.74,116.85,90.91,15.7
83,sangar,100,RU,1580356945,77,63.92,127.47,-7.04,17.69
84,mandera,23,KE,1580357045,58,3.94,41.87,77.68,11.25
85,oranjemund,11,NA,1580356945,92,-28.55,16.43,60.67,6.38
86,punta arenas,82,PH,1580356870,62,8.99,125.34,84.6,5.95
87,russell,20,US,1580356946,93,32.35,-85.2,48.2,2.44
88,carnarvon,90,AU,1580356946,78,-24.87,113.63,77.0,21.92
89,dauphin,90,CA,1580356849,85,51.15,-100.05,17.6,3.36
90,bredasdorp,100,ZA,1580356946,72,-34.53,20.04,64.4,13.78
91,brae,93,GB,1580356946,100,60.4,-1.35,42.8,1.12
92,kirakira,100,SB,1580356946,77,-10.45,161.92,83.3,4.97
93,caldwell,75,US,1580356946,93,43.66,-116.69,44.6,2.48
94,esperance,75,AU,1580356946,60,-33.87,121.9,75.2,9.17
95,jiehu,0,CN,1580356946,40,35.54,118.45,36.32,13.15
96,westport,1,US,1580356679,58,41.14,-73.36,33.01,4.7
97,flinders,0,AU,1580356947,54,-34.58,150.86,91.0,12.75
98,mahebourg,40,MU,1580356947,94,-20.41,57.7,75.99,4.7
99,severnyy,75,RU,1580356837,96,50.68,36.55,32.0,17.9
100,swift current,90,US,1580356947,92,45.27,-95.67,21.2,5.82
101,mar del plata,100,ES,1580356947,63,43.4,-4.01,64.4,6.93
102,marsh harbour,90,GB,1580357047,81,53.65,-1.81,48.2,4.7
103,alihe,0,CN,1580356772,67,50.57,123.72,12.36,0.85
104,ahipara,0,NZ,1580357047,65,-35.17,173.17,84.99,4.0
105,atar,100,MR,1580356947,19,20.52,-13.05,69.35,13.47
106,kruisfontein,76,ZA,1580356947,86,-34.0,24.73,60.3,4.16
107,beidao,0,CN,1580356947,32,34.57,105.89,39.88,0.72
108,georgetown,20,MY,1580356948,52,5.41,100.34,87.8,10.29
109,lafiagi,0,NG,1580356948,12,8.87,5.42,68.07,2.3
110,tasiilaq,91,GL,1580356948,68,65.61,-37.64,28.4,31.09
111,cabo san lucas,40,BR,1580356948,66,-8.28,-35.03,84.2,9.17
112,asau,75,RO,1580356948,59,46.43,26.4,37.4,4.7
113,klaksvik,76,FO,1580356948,70,62.23,-6.59,35.6,2.24
114,ambulu,100,ID,1580357048,72,-8.35,113.61,83.75,6.42
115,iqaluit,90,CA,1580356948,76,63.75,-68.51,-5.01,3.36
116,nakskov,100,DK,1580356948,1,54.84,11.13,39.99,13.0
117,burgeo,100,CA,1580356948,83,47.62,-57.62,26.92,23.51
118,coquimbo,0,CL,1580357049,88,-29.95,-71.34,62.6,6.93
119,ukiah,1,US,1580356949,71,39.15,-123.21,54.0,4.68
120,mahon,90,ES,1580356949,100,39.89,4.27,53.6,4.7
121,huancabamba,86,PE,1580356949,98,-5.24,-79.45,50.32,1.34
122,fortuna,90,US,1580356949,93,40.6,-124.16,54.0,2.04
123,gobabis,0,NA,1580356949,54,-22.45,18.97,70.12,9.4
124,hualmay,98,PE,1580356949,78,-11.1,-77.61,71.24,3.89
125,tevriz,51,RU,1580356949,99,57.51,72.4,-20.4,3.33
126,ribeira grande,75,ES,1580356949,87,42.75,-8.44,61.0,14.99
127,faanui,99,PF,1580356949,72,-16.48,-151.75,82.47,7.4
128,nuuk,0,GL,1580356950,71,64.18,-51.72,6.8,8.05
129,yerbogachen,0,RU,1580356826,93,61.28,108.01,1.58,7.45
130,ereymentau,79,KZ,1580356950,83,51.62,73.1,-3.1,2.64
131,khatanga,92,RU,1580356950,98,71.97,102.5,-15.86,2.62
132,moron,100,AR,1580357050,77,-34.65,-58.62,62.6,9.17
133,marzuq,0,YE,1580356950,70,14.4,46.47,53.8,1.25
134,hithadhoo,67,MV,1580356713,78,-0.6,73.08,81.25,14.72
135,port keats,100,CD,1580357050,75,-7.03,29.76,73.47,2.77
136,vilhena,100,BR,1580356854,88,-12.74,-60.15,72.25,2.62
137,garowe,100,SO,1580356950,80,8.41,48.48,61.93,6.71
138,ngorongoro,100,TZ,1580356950,97,-3.24,35.49,59.49,2.46
139,miles city,20,US,1580356951,87,35.19,-120.7,55.99,3.96
140,clyde river,90,US,1580356659,80,41.3,-82.98,30.99,2.89
141,parfino,90,RU,1580356951,93,57.97,31.65,30.45,4.5
142,brentwood,1,US,1580356897,58,40.78,-73.25,33.01,8.05
143,grindavik,0,IS,1580356951,72,63.84,-22.43,32.0,17.22
144,dunedin,78,NZ,1580356859,63,-45.87,170.5,66.99,8.01
145,bambous virieux,40,MU,1580356951,94,-20.26,57.41,75.99,4.7
146,hadejia,5,NG,1580356951,11,12.45,10.04,61.92,9.46
147,onufriyivka,41,UA,1580356951,79,48.91,33.45,33.96,18.07
148,parrita,90,CR,1580356951,100,9.52,-84.32,71.01,2.24
149,ilulissat,18,GL,1580356952,64,69.22,-51.1,-2.2,4.7
150,butaritari,60,KI,1580356952,73,3.07,172.79,84.92,8.16
151,najran,0,SA,1580357051,43,17.49,44.13,50.0,4.7
152,lata,75,PT,1580356952,87,40.16,-8.33,57.0,5.82
153,paamiut,0,GL,1580356952,50,61.99,-49.67,7.21,8.08
154,isangel,75,VU,1580356952,78,-19.55,169.27,82.4,13.87
155,shingu,40,JP,1580357052,50,33.73,135.98,53.6,16.11
156,hasaki,20,JP,1580356952,54,35.73,140.83,60.8,5.82
157,inirida,24,CO,1580357151,68,3.87,-67.92,78.1,1.21
158,san quintin,33,ML,1580356802,9,13.3,-4.9,70.36,7.4
159,troitsko-pechorsk,100,RU,1580356952,99,62.71,56.2,-7.17,4.0
160,cap malheureux,100,FR,1580356847,100,49.27,-1.21,48.0,12.75
161,okhotsk,0,RU,1580356953,71,59.38,143.3,-8.1,7.49
162,carson city,40,US,1580356812,38,33.83,-118.28,70.0,5.82
163,upernavik,78,GL,1580356953,92,72.79,-56.15,-14.1,4.7
164,sauda,100,NO,1580356953,87,59.65,6.35,37.99,3.91
165,vardo,75,NO,1580356801,61,70.37,31.11,17.6,11.41
166,new norfolk,20,LR,1580356953,94,6.65,-10.59,77.0,2.06
167,tautira,75,PF,1580356953,74,-17.73,-149.15,82.4,6.93
168,yongzhou,0,CN,1580356953,55,26.46,111.6,51.03,2.01
169,muriti,75,TZ,1580356954,83,-1.98,32.92,69.8,16.6
170,arraial do cabo,40,BR,1580356954,69,-22.84,-46.65,77.0,8.05
171,porto walter,75,PT,1580356954,87,41.15,-8.61,60.01,17.22
172,tuatapere,34,NZ,1580357053,51,-46.13,167.68,71.01,21.0
173,hofn,0,IS,1580356954,62,64.25,-15.21,37.29,5.73
174,port augusta,100,CD,1580356940,75,-7.03,29.76,73.47,2.77
175,vila franca do campo,90,PT,1580357053,93,42.03,-8.16,61.0,13.87
176,tilichiki,100,RU,1580356843,78,60.47,166.1,14.9,4.45
177,novyy oskol,75,RU,1580356955,93,45.01,38.98,39.2,8.95
178,souillac,40,MU,1580356955,94,-20.52,57.52,75.99,4.7
179,beloha,100,MG,1580357054,78,-25.17,45.05,69.94,8.52
180,ibaiti,90,BR,1580356955,99,-23.85,-50.19,73.99,1.99
181,north bend,66,FR,1580356970,93,50.33,3.67,41.0,10.29
182,olga,17,RU,1580356955,67,43.74,135.29,23.59,22.66
183,torbay,90,CA,1580356931,100,47.67,-52.73,30.99,10.29
184,chokurdakh,100,RU,1580356956,97,70.63,147.92,-14.89,8.72
185,soure,100,BR,1580356956,90,-0.72,-48.52,77.58,5.41
186,carlsbad,1,US,1580356907,18,33.16,-117.35,69.8,11.41
187,saint-maximin-la-sainte-baume,30,FR,1580356956,65,43.45,5.86,50.0,9.17
188,rio gallegos,75,GR,1580356956,87,38.3,21.78,57.2,11.41
189,rio grande,75,GR,1580356956,87,38.3,21.78,57.2,11.41
190,ponta do sol,100,PT,1580356829,91,38.73,-28.27,60.78,18.37
191,kodiak,90,US,1580356956,73,57.79,-152.41,19.4,8.05
192,maldonado,100,UY,1580357055,94,-34.67,-54.92,62.92,12.71
193,airai,33,TL,1580356957,59,-8.93,125.41,83.88,3.33
194,zhigansk,100,RU,1580356957,92,66.77,123.37,-11.02,11.1
195,mecca,35,SA,1580356804,54,21.43,39.83,66.9,3.11
196,sinnamary,0,GF,1580357056,82,5.38,-52.95,79.72,17.6
197,mayumba,100,GA,1580356957,77,-3.43,10.66,82.33,4.97
198,hamilton,90,US,1580356957,80,39.18,-84.53,34.0,4.5
199,bluefield,90,US,1580356957,86,37.27,-81.22,37.99,0.58
200,svetlyy,75,RU,1580356827,93,54.67,20.13,39.2,8.95
201,bubaque,100,GW,1580356957,73,11.28,-15.83,77.16,10.07
202,altos del rosario,75,BR,1580356957,88,-5.04,-42.46,80.6,3.36
203,coahuayana,75,MX,1580356958,93,18.73,-103.68,66.2,2.08
204,mehamn,100,NO,1580356856,83,71.04,27.85,14.25,23.38
205,dikson,78,RU,1580356958,98,73.51,80.55,-17.27,7.02
206,hurricane,1,US,1580356958,69,37.18,-113.29,48.2,11.41
207,shostka,100,UA,1580356958,97,51.86,33.47,35.31,9.66
208,gold coast,90,US,1580356958,97,35.79,-81.76,44.6,2.46
209,byron bay,90,US,1580356958,92,44.03,-92.65,21.0,4.7
210,mount gambier,90,GB,1580356958,81,53.66,-1.85,48.2,4.7
211,tarbagatay,75,RU,1580356959,84,51.48,107.36,-0.4,2.91
212,aswan,23,EG,1580356859,61,24.09,32.91,50.0,17.22
213,heswall,90,GB,1580356959,76,53.33,-3.1,48.2,8.05
214,faya,5,SA,1580356959,93,18.39,42.45,50.0,2.98
215,sao joao da barra,0,IN,1580356959,50,20.51,76.21,61.38,3.76
216,iwaki,75,JP,1580356959,50,37.05,140.88,51.8,4.7
217,vitim,100,RU,1580356959,94,59.45,112.56,11.37,7.47
218,huarmey,100,PE,1580357058,72,-10.07,-78.15,72.81,2.57
219,cidreira,0,BR,1580356959,86,-30.18,-50.21,75.78,15.48
220,wagar,42,SD,1580357058,92,16.15,36.2,59.97,4.9
221,zhezkazgan,90,KZ,1580356960,91,47.8,67.71,-2.2,4.47
222,constitucion,0,CL,1580356960,71,-35.33,-72.42,55.67,3.71
223,crab hill,1,US,1580356960,86,37.27,-76.49,37.4,2.68
224,vestmannaeyjar,0,IS,1580356960,68,63.44,-20.27,32.22,12.08
225,basco,81,PH,1580357058,80,20.45,121.97,68.02,28.23
226,sur,0,OM,1580357059,57,22.57,59.53,61.21,3.44
227,krasnyy chikoy,100,RU,1580357059,97,54.57,31.43,33.42,8.1
228,laguna,1,US,1580357059,87,38.42,-121.42,57.99,5.23
229,katsina,0,NG,1580356961,8,12.99,7.6,62.92,12.17
230,lompoc,1,US,1580356882,35,34.64,-120.46,57.2,4.7
231,waupun,90,US,1580356961,85,43.63,-88.73,27.0,1.97
232,touros,40,BR,1580356961,78,-5.2,-35.46,80.6,5.82
233,bilibino,98,RU,1580357059,100,68.05,166.44,-30.44,1.9
234,erenhot,0,CN,1580356961,76,43.65,111.98,18.32,12.1
235,saiki,75,JP,1580356961,53,32.95,131.9,51.8,11.41
236,antofagasta,79,CL,1580356824,77,-23.65,-70.4,72.0,14.99
237,lopez,0,PH,1580356961,69,13.88,122.26,80.56,7.78
238,svetlogorsk,100,BY,1580356961,93,52.63,29.73,29.46,12.1
239,pacific grove,90,US,1580356675,94,38.48,-90.74,33.01,3.36
240,peto,41,MX,1580356962,98,20.13,-88.92,69.39,2.95
241,kamenka,100,RU,1580357060,98,51.32,42.77,35.01,5.99
242,nikolayevsk-na-amure,0,RU,1580356962,79,53.14,140.73,4.24,3.02
243,half moon bay,20,LR,1580356962,94,6.38,-10.7,77.0,2.06
244,khash,0,IR,1580356962,45,28.22,61.22,39.56,4.81
245,sassandra,17,CI,1580356962,95,4.95,-6.08,76.82,4.36
246,victoria,0,HK,1580356803,33,22.29,114.16,62.01,11.41
247,moyale,99,KE,1580356962,61,3.52,39.06,74.07,2.17
248,kimbe,100,PG,1580356962,93,-5.55,150.14,76.64,5.57
249,dingle,100,PH,1580356962,65,11.0,122.67,82.99,8.1
250,neiafu,75,TO,1580356963,83,-18.65,-173.98,84.2,8.05
251,port blair,100,CD,1580356963,75,-7.03,29.76,73.47,2.77
252,khor,0,RU,1580356963,79,47.89,134.95,12.2,11.05
253,bazaliya,100,UA,1580356963,86,49.71,26.47,33.55,16.91
254,dakoro,0,NE,1580356963,7,14.51,6.76,65.07,11.34
255,sitka,75,US,1580356865,80,57.05,-135.33,35.6,13.87
256,warrington,90,GB,1580356963,76,53.39,-2.58,48.2,8.05
257,santa maria,0,PH,1580356963,58,17.49,120.43,78.48,8.01
258,tual,100,ID,1580356963,73,-5.67,132.75,85.44,17.29
259,tuktoyaktuk,90,CA,1580356964,75,69.45,-133.04,-20.2,12.75
260,morro da fumaca,25,EC,1580356964,80,-2.63,-80.33,76.3,5.77
261,turukhansk,100,RU,1580356964,96,65.82,87.98,-12.55,9.01
262,agadez,0,NE,1580356964,11,19.75,10.25,60.15,3.6
263,kavaratti,40,IN,1580356964,66,10.57,72.64,84.2,4.7
264,natal,40,BR,1580356730,78,-5.79,-35.21,80.6,10.29
265,jieshi,0,CN,1580356964,34,22.81,115.83,57.02,9.19
266,dukat,0,RU,1580357062,87,62.55,155.55,-22.04,3.96
267,yumen,0,CN,1580357062,28,40.28,97.2,28.27,0.96
268,kosh-agach,0,RU,1580356964,86,50.0,88.67,-21.6,1.34
269,nambucca heads,40,AU,1580356965,78,-30.63,152.98,87.01,8.05
270,pemba,75,MZ,1580356965,94,-12.97,40.52,77.0,4.7
271,kysyl-syr,100,RU,1580356965,95,63.9,122.76,-15.3,10.89
272,ixtapa,90,MX,1580356805,78,20.7,-105.2,75.0,1.19
273,ruteng,61,ID,1580356965,60,-8.61,120.47,84.2,5.57
274,chistogorskiy,100,RU,1580356965,97,53.98,87.38,-4.47,4.27
275,snasa,99,NO,1580356965,92,64.25,12.38,12.67,8.57
276,khorramshahr,0,IR,1580356965,87,30.44,48.17,57.2,9.17
277,kautokeino,100,NO,1580356965,95,69.01,23.04,6.49,7.63
278,tretten,98,NO,1580356965,96,61.31,10.3,26.01,2.17
279,lidkoping,61,SE,1580356965,100,58.51,13.16,36.0,4.7
280,kawana waters,100,AU,1580356966,38,-23.33,150.51,91.4,12.75
281,noumea,0,NC,1580356966,51,-22.28,166.46,86.0,23.04
282,rio bonito,75,GR,1580356956,87,38.3,21.78,57.2,11.41
283,sao filipe,0,IN,1580356959,50,20.51,76.21,61.38,3.76
284,kollo,23,NE,1580356966,10,13.3,2.34,69.8,6.93
285,mareeba,40,AU,1580357064,83,-17.0,145.43,84.0,6.93
286,chuy,0,UY,1580356966,85,-33.7,-53.46,68.76,7.09
287,kabompo,100,ZM,1580356966,97,-13.59,24.2,62.94,2.89
288,januaria,97,BR,1580356966,95,-15.48,-44.37,70.52,1.48
289,nokaneng,0,BW,1580356967,74,-19.67,22.27,68.63,2.15
290,ikwiriri,18,TZ,1580356967,97,-7.96,38.97,72.57,1.68
291,seydi,100,TM,1580356967,60,39.48,62.91,35.89,12.71
292,kontagora,0,NG,1580356967,11,10.4,5.47,68.77,7.78
293,kizukuri,75,JP,1580356967,97,40.81,140.39,37.99,11.41
294,massape,99,BR,1580356967,89,-3.52,-40.34,74.01,2.28
295,terney,84,RU,1580356967,52,45.05,136.61,23.02,6.71
296,sept-iles,5,CA,1580356795,55,50.2,-66.38,8.01,8.05
297,gravdal,100,NO,1580356968,69,68.12,13.5,34.99,16.75
298,nikolskoye,90,RU,1580356936,92,59.7,30.79,30.2,11.18
299,grand river south east,1,US,1580357065,86,38.88,-109.5,30.2,4.7
300,vanimo,100,PG,1580356968,75,-2.67,141.3,83.34,13.0
301,ushtobe,100,KZ,1580356968,86,45.25,77.98,15.06,2.44
302,buchanan,20,LR,1580356968,94,5.88,-10.05,77.0,3.87
303,rudnya,100,RU,1580356968,98,54.95,31.09,33.24,8.01
304,yulara,40,AU,1580356866,49,-25.24,130.99,89.6,13.87
305,college,90,US,1580356785,68,64.86,-147.8,-9.0,4.47
306,turayf,0,SA,1580356968,100,31.67,38.66,37.4,4.7
307,burnie,0,AU,1580356969,62,-41.07,145.92,77.0,11.01
308,gandorhun,34,SL,1580356969,94,7.5,-11.83,74.57,3.09
309,altay,0,CN,1580356969,44,47.87,88.12,-3.96,6.58
310,fria,100,GN,1580356969,92,10.42,-13.58,66.87,2.77
311,asosa,98,ET,1580356969,35,10.07,34.53,62.94,5.79
312,davila,75,PH,1580356969,73,18.47,120.58,77.0,11.41
313,longyearbyen,20,SJ,1580356969,62,78.22,15.64,21.2,11.41
314,key west,90,US,1580356828,74,32.73,-101.8,39.2,16.11
315,lavrentiya,0,RU,1580356969,71,65.58,-171.0,-13.0,11.21
316,aksarka,99,RU,1580356969,100,66.56,67.8,-15.66,1.88
317,ucluelet,0,CA,1580356822,90,48.93,-125.55,41.0,4.09
318,koson,0,UZ,1580356970,80,39.04,65.58,30.2,4.7
319,novochernorechenskiy,100,RU,1580356970,92,56.27,91.08,-4.81,11.74
320,tymovskoye,13,RU,1580356970,88,50.85,142.66,8.02,4.32
321,alofi,75,NU,1580356970,74,-19.06,-169.92,86.0,6.93
322,san luis,33,ML,1580356802,9,13.3,-4.9,70.36,7.4
323,iisalmi,90,FI,1580356864,86,63.56,27.19,26.6,10.29
324,dargaville,0,NZ,1580356970,57,-35.93,173.88,77.34,9.91
325,at-bashi,27,KG,1580356970,24,41.17,75.81,-5.21,1.88
326,plettenberg bay,100,DE,1580356677,81,51.22,7.88,44.01,18.34
327,udachnyy,90,RU,1580356971,91,66.42,112.4,-4.0,4.47
328,bezhetsk,100,RU,1580356971,95,57.79,36.7,30.63,6.69
329,port macquarie,100,CD,1580356963,75,-7.03,29.76,73.47,2.77
330,fuerte olimpo,0,PH,1580356971,58,17.54,120.36,78.48,8.01
331,bandarbeyla,100,SO,1580357068,67,9.49,50.81,74.17,16.44
332,leshukonskoye,50,RU,1580356858,98,64.9,45.76,-8.84,3.85
333,grand centre,1,US,1580356769,86,38.88,-109.5,30.99,4.7
334,ribeira brava,75,ES,1580356971,87,42.75,-8.44,61.0,14.99
335,kuandian,0,CN,1580356971,70,40.73,124.78,22.64,11.16
336,gasa,28,PS,1580356971,93,31.5,34.47,50.0,3.36
337,paracatu,99,BR,1580356971,89,-17.22,-46.87,69.24,2.01
338,soyo,100,AO,1580357068,87,-6.13,12.37,79.07,1.36
339,nacogdoches,90,US,1580356972,93,31.6,-94.63,48.0,4.7
340,buala,100,SB,1580357069,71,-8.14,159.59,84.81,0.49
341,araxa,100,BR,1580356972,88,-19.59,-46.94,71.6,1.12
342,auki,100,SB,1580356972,69,-8.77,160.7,85.03,4.41
343,odweyne,78,SO,1580356972,45,9.41,45.06,59.56,1.57
344,vitry-le-francois,90,FR,1580356972,86,48.73,4.58,41.0,6.93
345,along,99,IN,1580356972,61,28.17,94.77,53.46,2.35
346,lakes entrance,90,US,1580356833,63,61.61,-149.31,33.8,14.99
347,atasu,100,KZ,1580357069,67,48.68,71.64,1.62,5.46
348,guarapari,20,BR,1580356973,88,-20.67,-40.5,79.0,6.93
349,uvalde,1,US,1580356973,57,29.37,-99.77,50.0,5.82
350,tecate,4,MX,1580356973,25,32.57,-116.63,69.8,27.56
351,reconquista,100,AR,1580356973,93,-29.15,-59.65,69.73,9.46
352,cabedelo,20,BR,1580356973,88,-6.98,-34.83,77.0,4.7
353,khuzdar,0,PK,1580356810,51,27.74,66.64,38.97,2.01
354,smithers,75,CA,1580356786,59,54.78,-127.17,37.4,6.93
355,waipawa,99,NZ,1580356832,60,-41.41,175.52,73.4,23.04
356,khandagayty,25,RU,1580356973,55,50.73,92.05,-2.29,2.82
357,alghero,40,IT,1580356974,81,40.56,8.32,53.6,4.7
358,fairbanks,90,US,1580356786,75,64.84,-147.72,-9.0,5.68
359,katherine,1,AU,1580356974,49,-14.47,132.27,93.2,9.17
360,ugoofaaru,66,MV,1580356974,72,5.67,73.0,80.85,11.86
361,arlit,0,NE,1580357070,10,18.74,7.39,67.19,6.73
362,sakakah,0,SA,1580356876,80,29.97,40.21,39.2,3.36
363,bulgan,2,MN,1580356974,78,48.81,103.53,9.09,6.71
364,salalah,81,OM,1580356888,52,17.02,54.09,64.4,2.24
365,kununurra,90,AU,1580356830,46,-15.77,128.73,93.2,8.05
366,broome,40,US,1580356974,100,42.25,-75.83,19.0,3.02
367,chingirlau,100,KZ,1580356974,94,51.09,54.08,24.93,10.27
368,portland,90,US,1580356874,93,45.52,-122.68,48.2,1.19
369,akureyri,90,IS,1580356805,92,65.68,-18.09,26.6,6.93
370,murgab,100,TM,1580356975,69,37.5,61.97,39.2,11.41
371,labuhan,100,ID,1580356975,73,-6.88,112.21,85.08,14.29
372,honiara,90,SB,1580356868,74,-9.43,159.95,86.0,8.05
373,hami,0,CN,1580356975,78,42.8,93.45,9.97,2.53
374,deputatskiy,99,RU,1580356975,93,69.3,139.9,-12.91,4.21
375,narsaq,20,GL,1580356975,66,60.92,-46.05,12.2,3.36
376,esterhazy,86,CA,1580356975,97,50.65,-102.08,11.59,4.72
377,moengo,44,SR,1580356975,96,5.62,-54.4,72.82,2.42
378,huambo,100,AO,1580356808,97,-12.78,15.74,58.8,3.04
379,fort nelson,90,NL,1580356976,81,52.65,6.39,46.4,20.8
380,myingyan,20,MM,1580356744,56,21.47,95.38,69.8,2.24
381,sabang,99,ID,1580356976,72,5.89,95.32,80.94,13.94
382,komsomolskiy,0,UZ,1580356863,79,40.43,71.72,30.2,4.7
383,ballina,75,AU,1580357072,74,-28.87,153.57,88.0,8.05
384,port-gentil,71,GA,1580356976,80,-0.72,8.78,82.71,9.75
385,caravelas,12,BR,1580356833,85,-17.71,-39.25,79.47,11.83
386,roebourne,11,AU,1580356976,10,-20.78,117.13,104.97,16.51
387,burley,90,US,1580356976,86,42.54,-113.79,35.6,6.93
388,jacksonville,90,US,1580356608,93,30.33,-81.66,57.99,9.17
389,luderitz,0,NA,1580356977,91,-26.65,15.16,63.7,20.78
390,borogontsy,0,RU,1580356977,90,62.67,131.17,-18.09,8.52
391,hawalli,0,KW,1580356977,57,29.28,48.0,48.2,5.82
392,poum,0,NC,1580356977,77,-20.23,164.02,78.78,16.37
393,niquelandia,100,BR,1580356977,91,-14.47,-48.46,70.02,1.59
394,verkhnyaya toyma,87,RU,1580356977,96,60.98,40.21,5.22,5.53
395,banjar,75,ID,1580356977,100,-8.19,114.97,78.8,8.05
396,kozhevnikovo,28,RU,1580357074,82,56.26,83.97,-9.99,3.0
397,masuguru,39,TZ,1580356977,98,-11.37,38.42,72.32,2.28
398,lazaro cardenas,65,DO,1580356978,92,19.46,-71.33,69.01,4.23
399,guatire,87,VE,1580356978,98,10.48,-66.54,77.0,5.82
400,cairns,40,AU,1580356862,83,-16.92,145.77,84.0,6.93
401,nouadhibou,100,MR,1580356834,35,20.93,-17.03,73.4,13.87
402,yangambi,70,CD,1580356744,55,0.81,24.43,71.47,1.7
403,babushkin,100,RU,1580356978,92,51.71,105.86,12.65,11.48
404,taguatinga,100,BR,1580356978,90,-12.39,-46.57,73.04,1.43
405,ippy,32,CF,1580356978,20,6.27,21.22,69.03,7.36
406,ponta delgada,100,PT,1580356978,91,38.73,-28.27,60.78,18.37
407,sumbe,100,AO,1580356979,90,-11.21,13.84,74.98,3.49
408,lorengau,100,PG,1580357075,75,-2.02,147.27,84.15,6.69
409,suntar,100,RU,1580356832,89,62.14,117.63,11.26,8.93
410,nunoa,100,PE,1580356979,88,-14.48,-70.64,40.96,1.43
411,varamin,20,IR,1580356979,64,35.32,51.65,33.8,3.76
412,sheksna,90,RU,1580356979,92,59.21,38.51,21.2,4.47
413,semenivka,100,UA,1580356979,99,52.18,32.58,32.25,7.78
414,flin flon,100,FR,1580356851,93,48.5,6.66,44.6,3.36
415,wapakoneta,90,US,1580356979,87,40.57,-84.19,32.0,6.69
416,camabatela,100,AO,1580356980,96,-8.19,15.38,63.68,3.4
417,riyadh,32,SA,1580356658,35,24.69,46.72,50.0,3.36
418,maracaju,6,BR,1580356980,84,-21.61,-55.17,75.72,10.07
419,tarko-sale,99,RU,1580356980,96,64.92,77.78,-8.45,10.94
420,santiago,0,CL,1580356743,45,-33.46,-70.65,70.0,10.29
421,tokur,0,RU,1580356980,74,53.13,132.9,4.12,1.86
422,piterka,100,RU,1580356980,96,50.68,47.45,31.57,14.54
423,canarana,100,BR,1580356980,91,-11.68,-41.77,68.88,7.81
424,pathein,53,MM,1580356981,46,16.78,94.73,80.37,2.98
425,oskemen,40,KZ,1580356981,75,49.96,82.61,-18.4,2.24
426,coalinga,75,US,1580356981,81,36.14,-120.36,51.8,4.43
427,koslan,100,RU,1580356981,98,63.46,48.9,-5.73,4.85
428,avenal,75,US,1580356981,81,36.0,-120.13,51.8,3.0
429,kenai,90,US,1580357077,79,60.55,-151.26,26.6,13.87
430,tabuk,4,PH,1580356981,73,17.42,121.44,73.89,8.77
431,castlecomer,100,IE,1580356982,91,52.81,-7.21,50.0,5.99
432,palmer,1,US,1580356982,45,42.16,-72.33,28.0,10.29
433,alta,100,NO,1580356982,61,69.97,23.27,17.6,19.46
434,kahului,40,US,1580356874,57,20.89,-156.47,80.6,6.93
435,sosnovo-ozerskoye,100,RU,1580356982,95,52.52,111.54,4.12,7.07
436,petawawa,1,CA,1580356802,100,45.9,-77.33,1.0,2.24
437,aranos,0,NA,1580356982,45,-24.13,19.12,73.02,8.81
438,angoche,24,MZ,1580357077,96,-16.23,39.91,74.39,5.68
439,santana do acarau,75,BR,1580356982,100,-0.06,-51.18,78.8,1.12
440,dumai,100,ID,1580356982,67,1.68,101.45,85.66,2.68
441,jalakandapuram,20,IN,1580356983,73,11.7,77.87,77.0,2.68
442,atambua,87,ID,1580357078,68,-9.11,124.89,84.7,7.05
443,pravia,100,ES,1580356983,76,43.49,-6.15,57.2,2.24
444,padang,100,ID,1580356983,55,-0.95,100.35,80.51,2.46
445,lethem,68,GY,1580356866,60,3.38,-59.8,83.03,11.34
446,seaside,1,US,1580356983,76,36.61,-121.85,54.0,10.76
447,bintulu,75,MY,1580357078,88,3.17,113.03,80.6,11.41
448,itoigawa,88,JP,1580356983,91,37.03,137.85,36.7,11.12
449,bathsheba,75,BB,1580356983,78,13.22,-59.52,78.8,12.75
450,puerto narino,90,ES,1580356870,100,36.59,-6.23,48.99,2.24
451,solnechnyy,0,RU,1580356984,64,50.72,136.63,15.31,3.58
452,kanata,5,CA,1580356984,84,45.32,-75.9,9.0,3.36
453,antanifotsy,70,MG,1580356984,96,-19.65,47.32,61.95,2.75
454,vao,0,NC,1580357079,73,-22.67,167.48,77.07,14.52
455,sorland,98,NO,1580357079,67,67.67,12.69,37.47,13.67
456,itarema,16,BR,1580357079,92,-2.92,-39.92,75.83,3.42
457,tazovskiy,98,RU,1580356861,96,67.47,78.7,-11.79,11.12
458,camacha,20,PT,1580356984,72,33.08,-16.33,59.0,3.36
459,tornio,90,FI,1580356984,85,65.85,24.13,19.4,13.87
460,pimenta bueno,100,BR,1580356985,97,-20.48,-45.8,67.64,3.56
461,mocuba,100,MZ,1580356985,96,-16.84,36.99,72.61,2.62
462,verkh-usugli,100,RU,1580356985,83,52.7,115.17,0.93,1.7
463,sobolevo,100,RU,1580356985,97,54.43,31.9,33.15,9.73
464,filadelfia,1,US,1580356945,58,39.95,-75.16,33.8,3.36
465,saint-paul,90,RE,1580356985,73,-21.01,55.27,79.0,6.93
466,bilma,26,NE,1580356823,13,18.69,12.92,62.83,8.88
467,saint-georges,40,GD,1580356985,83,12.06,-61.75,78.8,11.41
468,araouane,0,ML,1580357080,21,18.9,-3.53,67.35,13.51
469,oksfjord,95,NO,1580356985,61,70.24,22.35,17.6,19.46
470,tahta,0,EG,1580356860,70,26.77,31.5,48.2,10.29
471,gat,14,IL,1580357080,93,31.61,34.76,50.0,3.36
472,ust-kuyga,100,RU,1580357080,97,70.02,135.6,-15.97,6.4
473,comodoro rivadavia,100,BR,1580356986,85,-13.66,-59.79,72.7,3.89
474,jurado,89,CO,1580356986,73,7.11,-77.76,81.5,1.57
475,houma,90,US,1580356986,87,29.6,-90.72,55.99,9.17
476,irtyshskiy,66,RU,1580356986,97,58.33,68.13,-17.18,2.66
477,banda aceh,0,IN,1580356986,74,25.48,80.33,57.47,6.67
478,bacungan,20,PH,1580356987,52,9.91,118.7,89.6,17.22
479,charlestown,20,AU,1580356987,69,-32.95,151.67,90.0,14.99
480,tura,5,IN,1580356987,51,25.52,90.22,69.62,2.1
481,brooks,100,CA,1580356932,79,50.58,-111.89,36.0,10.0
482,hudson bay,1,US,1580356803,53,40.72,-74.07,34.0,14.43
483,havelock,90,US,1580356788,65,34.88,-76.9,46.4,8.05
484,jiuquan,0,CN,1580356987,28,39.74,98.52,22.66,2.44
485,nabire,26,ID,1580356987,50,-3.37,135.48,90.39,5.97
486,veraval,0,IN,1580356572,40,20.9,70.37,60.19,10.98
487,bud,90,US,1580356988,74,39.45,-86.18,34.0,3.36
488,goderich,100,CA,1580357082,81,43.75,-81.72,32.0,6.46
489,moyo,29,UG,1580356988,87,3.66,31.72,64.96,2.93
490,adrar,100,MR,1580356988,18,20.5,-10.07,66.4,11.79
491,beringovskiy,83,RU,1580357082,100,63.05,179.32,-3.82,9.64
492,papa,57,HU,1580356988,69,47.33,17.47,37.4,6.93
493,bell ville,75,US,1580356988,86,31.05,-97.47,45.0,9.17
494,nassau,1,US,1580356988,58,40.75,-73.58,34.0,17.6
495,chapais,1,CA,1580356961,76,49.78,-74.85,-11.2,1.25
496,bur gabo,100,DK,1580357083,93,56.37,8.43,46.0,16.11
497,guabito,67,PA,1580356989,96,9.5,-82.62,75.99,3.04
498,birjand,67,IR,1580356989,68,32.87,59.22,30.2,11.41
499,dossor,100,KZ,1580356989,84,47.53,52.98,32.68,17.47
500,stevens point,90,US,1580356989,93,48.43,-117.83,37.99,5.82
501,madera,4,US,1580356989,100,37.17,-119.83,51.01,2.82
502,qurayyat,0,SA,1580356989,86,31.33,37.34,37.4,2.24
503,mahajanga,20,MG,1580356990,94,-15.72,46.32,78.8,4.7
504,mombasa,45,KE,1580356803,97,-4.05,39.66,73.8,2.57
505,taoudenni,0,ML,1580356990,25,22.68,-3.98,59.34,9.95
506,kurumkan,22,RU,1580356990,88,54.3,110.3,5.0,1.16
507,meulaboh,38,ID,1580356990,78,4.14,96.13,79.29,5.86
508,ljungby,100,SE,1580356990,93,56.83,13.94,41.0,10.29
509,lingyuan,43,CN,1580357084,30,41.24,119.4,25.93,9.4
510,tezu,99,IN,1580356990,44,27.92,96.17,60.35,1.25
511,bichura,100,RU,1580356990,87,50.59,107.6,10.33,3.22
512,mahibadhoo,2,MV,1580356991,76,3.78,72.97,80.29,13.29
513,talnakh,75,RU,1580356991,75,69.49,88.4,-16.6,6.71
514,ratnapura,12,LK,1580356991,77,6.68,80.4,74.7,1.41
515,jalu,0,LY,1580356991,49,29.03,21.55,54.57,7.29
516,nawabganj,2,BD,1580356991,73,24.59,88.27,68.79,5.03
517,myre,100,NO,1580356991,74,69.1,15.95,30.2,19.46
518,mazyr,100,BY,1580356991,91,52.05,29.25,31.35,15.03
519,finschhafen,100,PG,1580356991,85,-6.6,147.87,77.67,1.39
520,codrington,0,AU,1580356991,44,-38.27,141.97,76.53,8.48
521,yar-sale,85,RU,1580357085,95,66.83,70.83,-16.2,10.76
522,sechura,40,PE,1580356992,83,-5.56,-80.82,73.78,10.96
523,ofunato,75,JP,1580356992,80,39.07,141.72,41.0,9.75
524,colac,0,AU,1580356992,14,-38.33,143.58,100.99,3.0
525,berlevag,100,NO,1580356992,64,70.86,29.09,23.22,27.85
526,pangai,75,TO,1580357086,79,-19.8,-174.35,84.2,6.93
527,richards bay,90,US,1580356992,100,46.84,-95.91,19.99,3.36
528,juneau,90,US,1580356992,98,58.3,-134.42,35.6,14.07
529,guerrero negro,30,MX,1580356992,66,17.67,-100.0,50.2,1.9
530,ust-tsilma,57,RU,1580356992,96,65.44,52.15,-14.55,4.41
531,katobu,95,ID,1580356992,65,-4.94,122.53,89.08,2.71
532,koshurnikovo,100,RU,1580356992,93,54.17,93.3,2.59,4.38
533,novyy urengoy,75,RU,1580356954,93,45.01,38.98,39.2,8.95
534,kompaniyivka,12,UA,1580356993,79,48.25,32.21,32.5,16.6
535,huanren,0,CN,1580356993,78,41.26,125.37,17.01,6.11
536,talaya,0,RU,1580356993,96,61.38,152.75,-25.56,0.63
537,mildura,0,AU,1580356993,7,-34.2,142.15,108.0,8.05
538,trairi,66,BR,1580356993,90,-3.28,-39.27,75.04,1.92
539,andenes,100,NO,1580357087,74,69.31,16.12,30.2,19.46
540,yakeshi,87,CN,1580357087,95,49.28,120.73,-0.92,2.82
>>>>>>> d49d30c42ec6de216950acdda8cb08894e567c01
